City_ID,City,Lat,Lng,Max Temp,Humidity,Cloudiness,Wind Speed,Country,Date
0,kodiak,57.79,-152.4072,40.51,93,75,6.91,US,1696232513
1,callao,-12.0667,-77.15,66.72,82,100,13.8,PE,1696232513
2,vilyuchinsk,52.9306,158.4028,47.93,94,100,17.72,RU,1696232513
3,adamstown,-25.066,-130.1015,68.63,78,30,24.29,PN,1696232513
4,along,28.1667,94.7667,82.47,89,78,1.81,IN,1696232514
5,geraldton,-28.7667,114.6,68.41,45,40,19.57,AU,1696232514
6,iqaluit,63.7506,-68.5145,37.13,86,100,6.91,CA,1696232514
7,waitangi,-43.9535,-176.5597,55.81,89,100,8.99,NZ,1696232514
8,puerto natales,-51.7236,-72.4875,30.78,91,63,4.45,CL,1696232514
9,edinburgh of the seven seas,-37.0676,-12.3116,49.89,65,90,25.14,SH,1696232514
10,tete,-16.1564,33.5867,80.69,61,75,13.8,MZ,1696232514
11,port lincoln,-34.7333,135.8667,73.45,50,27,6.35,AU,1696232514
12,badger,64.8,-147.5333,38.35,92,100,6.91,US,1696232514
13,bandar-e genaveh,29.5791,50.517,95.02,36,1,18.88,IR,1696232515
14,blackmans bay,-43.0167,147.3167,64.72,32,0,11.1,AU,1696232515
15,northam,51.0333,-4.2167,63.66,99,100,1.95,GB,1696232515
16,whitehorse,60.7161,-135.0538,43.57,82,75,12.66,CA,1696232515
17,skovorodino,53.9833,123.9167,54.5,47,58,3.44,RU,1696232515
18,utrik,11.2278,169.8474,83.26,79,76,10.49,MH,1696232515
19,jalasjarvi,62.5,22.75,46.36,78,100,2.48,FI,1696232515
20,arraias,-12.9288,-46.9437,77.32,30,25,1.32,BR,1696232516
21,grytviken,-54.2811,-36.5092,37.58,86,89,13.33,GS,1696232516
22,tulsipur,28.131,82.2973,76.48,88,100,2.89,NP,1696232516
23,catumbela,-12.4314,13.5472,75.78,75,15,4.76,AO,1696232516
24,igarka,67.4667,86.5833,33.53,71,100,15.52,RU,1696232516
25,bethel,41.3712,-73.414,63.93,86,0,0.0,US,1696232429
26,olonkinbyen,70.9221,-8.7187,33.28,98,100,17.81,SJ,1696232516
27,acapulco de juarez,16.8634,-99.8901,80.42,78,100,6.91,MX,1696232516
28,ushuaia,-54.8,-68.3,33.46,69,0,13.8,AR,1696232429
29,morehead city,34.7229,-76.726,67.98,90,0,5.75,US,1696232517
30,anadyr,64.75,177.4833,32.5,69,0,2.24,RU,1696232517
31,qaqortoq,60.7167,-46.0333,35.91,69,100,5.14,GL,1696232517
32,rioblanco,3.5308,-75.6806,64.69,75,100,3.2,CO,1696232517
33,jurilovca,44.7667,28.8667,64.04,43,12,20.0,RO,1696232517
34,kailua-kona,19.6406,-155.9956,80.56,81,0,5.75,US,1696232517
35,punta arenas,-53.15,-70.9167,32.11,80,40,11.5,CL,1696232517
36,shalqar,47.8333,59.6,64.33,34,5,7.25,KZ,1696232517
37,al jubayl,27.0112,49.6583,93.54,42,0,11.95,SA,1696232360
38,puerto ayora,-0.7393,-90.3518,71.55,100,90,7.65,EC,1696232518
39,margaret river,-33.95,115.0667,56.44,49,87,20.38,AU,1696232518
40,lihue,21.9789,-159.3672,79.84,82,75,12.66,US,1696232518
41,port alfred,-33.5906,26.891,69.19,63,2,5.99,ZA,1696232518
42,sabzevar,36.2126,57.6819,78.08,19,0,11.5,IR,1696232518
43,kingston,17.997,-76.7936,83.35,83,20,4.61,JM,1696232273
44,thompson,55.7435,-97.8558,35.76,100,100,10.36,CA,1696232518
45,longyearbyen,78.2186,15.6401,24.64,63,40,20.71,SJ,1696232518
46,buenaventura,3.8801,-77.0312,74.43,97,100,0.54,CO,1696232518
47,port-aux-francais,-49.35,70.2167,33.71,72,34,41.85,TF,1696232519
48,sittwe,20.15,92.9,82.18,80,56,9.22,MM,1696232519
49,blenheim,-41.516,173.9528,50.95,55,1,15.19,NZ,1696232519
50,itoman,26.1247,127.6694,88.57,74,75,20.71,JP,1696232519
51,susuman,62.7833,148.1667,33.98,73,10,3.0,RU,1696232519
52,hawaiian paradise park,19.5933,-154.9731,74.71,93,40,4.61,US,1696232519
53,la ronge,55.1001,-105.2842,44.85,81,100,6.91,CA,1696232519
54,camana,-16.6228,-72.7111,63.63,89,90,5.39,PE,1696232520
55,hermanus,-34.4187,19.2345,68.61,51,0,6.13,ZA,1696232520
56,bratsk,56.1325,101.6142,37.89,42,98,10.56,RU,1696232520
57,college,64.8569,-147.8028,38.44,91,100,6.91,US,1696232520
58,biloela,-24.4167,150.5,73.92,51,0,18.5,AU,1696232520
59,alice springs,-23.7,133.8833,96.35,13,91,17.27,AU,1696232374
60,hasaki,35.7333,140.8333,73.8,50,100,15.26,JP,1696232520
61,kidal,18.4411,1.4078,91.76,25,60,12.39,ML,1696232520
62,jamestown,42.097,-79.2353,59.02,99,75,1.01,US,1696232371
63,hamilton,39.1834,-84.5333,63.99,90,0,4.61,US,1696232262
64,avarua,-21.2078,-159.775,71.65,83,75,13.8,CK,1696232364
65,stanley,54.868,-1.6985,51.78,94,0,4.61,GB,1696232521
66,qulsary,46.9531,54.0198,70.29,36,100,14.61,KZ,1696232521
67,anloga,5.7947,0.8973,80.28,81,26,9.62,GH,1696232521
68,ust-tsilma,65.441,52.1498,52.61,94,100,5.01,RU,1696232521
69,port mathurin,-19.6833,63.4167,74.19,83,32,14.18,MU,1696232521
70,nabire,-3.3667,135.4833,81.63,79,98,0.74,ID,1696232521
71,talnakh,69.4865,88.3972,22.21,89,91,9.44,RU,1696232521
72,qui nhon,13.7667,109.2333,83.64,79,100,10.22,VN,1696232522
73,vadso,70.0744,29.7487,37.56,75,20,12.66,NO,1696232522
74,praia da vitoria,38.7333,-27.0667,66.76,82,20,11.95,PT,1696232522
75,yuzhno-kurilsk,44.0306,145.8556,58.91,76,34,6.17,RU,1696232522
76,yellowknife,62.456,-114.3525,44.56,100,40,2.3,CA,1696232522
77,cidreira,-30.1811,-50.2056,52.61,78,0,5.39,BR,1696232522
78,kerikeri,-35.2268,173.9474,58.91,86,34,3.0,NZ,1696232522
79,hastings,50.8552,0.5729,63.52,52,100,2.89,GB,1696232522
80,saipan,15.1355,145.701,86.7,74,20,17.27,MP,1696232523
81,cedeira,43.6797,-8.0209,62.98,66,8,11.34,ES,1696232523
82,vallenar,-28.5708,-70.7581,48.6,79,47,2.13,CL,1696232523
83,udachny,66.4167,112.4,30.45,100,96,14.74,RU,1696232523
84,fada,9.5667,8.3,71.02,94,100,1.52,NG,1696232523
85,new norfolk,-42.7826,147.0587,65.91,40,0,6.49,AU,1696232523
86,tiksi,71.6872,128.8694,22.5,78,17,3.27,RU,1696232524
87,coahuayana de hidalgo,18.7,-103.6583,79.43,94,91,2.44,MX,1696232524
88,sinop,41.7711,34.8709,66.63,55,98,10.25,TR,1696232524
89,invercargill,-46.4,168.35,44.02,75,97,14.0,NZ,1696232524
90,pullman,46.7313,-117.1796,53.83,78,100,0.0,US,1696232524
91,timbuktu,16.7735,-3.0074,93.18,30,37,11.01,ML,1696232524
92,nogliki,51.8333,143.1667,51.35,96,100,25.01,RU,1696232524
93,prado,-17.3411,-39.2208,69.35,90,97,5.12,BR,1696232272
94,ribeira grande,38.5167,-28.7,66.6,55,20,10.0,PT,1696232525
95,kapuskasing,49.4169,-82.4331,62.69,94,100,6.91,CA,1696232525
96,isafjordur,66.0755,-23.124,42.84,75,75,19.57,IS,1696232525
97,luganville,-15.5333,167.1667,76.41,84,100,17.07,VU,1696232525
98,lompoc,34.6391,-120.4579,55.81,87,0,5.01,US,1696232476
99,ingeniero jacobacci,-41.3427,-69.5448,42.28,63,34,8.14,AR,1696232525
100,ballina,-28.8667,153.5667,70.83,70,0,14.79,AU,1696232525
101,callaway,30.153,-85.5699,69.73,82,0,8.05,US,1696232525
102,vanino,49.0869,140.2543,49.93,85,100,16.4,RU,1696232525
103,selfoss,63.9331,-20.9971,41.29,78,69,11.72,IS,1696232526
104,papatowai,-46.5619,169.4708,42.42,69,98,20.69,NZ,1696232526
105,jwaneng,-24.6004,24.7303,73.99,36,0,24.05,BW,1696232526
106,atafu village,-8.5421,-172.5159,83.35,74,21,9.64,TK,1696232526
107,ghat,24.9647,10.1728,83.05,33,0,6.51,LY,1696232526
108,bunol,39.4167,-0.7833,68.76,43,0,2.17,ES,1696232406
109,bilibino,68.0546,166.4372,29.95,98,100,2.71,RU,1696232526
110,dazhou,31.2159,107.5009,65.3,97,100,4.83,CN,1696232526
111,antalaha,-14.9003,50.2788,79.63,69,18,9.1,MG,1696232526
112,el calafate,-50.3408,-72.2768,36.3,68,100,3.04,AR,1696232527
113,marco island,25.9363,-81.7157,77.0,96,100,6.91,US,1696232527
114,petropavlovsk-kamchatsky,53.0452,158.6483,46.49,94,100,15.66,RU,1696232527
115,klyuchi,52.2667,79.1667,56.71,35,0,8.68,RU,1696232527
116,walvis bay,-22.9575,14.5053,65.53,57,0,6.51,NA,1696232527
117,las tablas,7.7667,-80.2833,77.79,90,100,1.72,PA,1696232527
118,hwacheon,38.1061,127.7067,74.95,59,33,1.45,KR,1696232527
119,dudinka,69.4058,86.1778,22.62,86,100,10.0,RU,1696232528
120,georgetown,5.4112,100.3354,89.94,69,40,9.22,MY,1696232459
121,touros,-5.1989,-35.4608,77.34,73,100,11.7,BR,1696232528
122,berthoud,47.059,7.6279,66.2,94,0,4.61,CH,1696232528
123,nova xavantina,-14.6667,-52.35,79.75,53,25,3.36,BR,1696232528
124,aldama,22.9167,-98.0667,77.38,92,27,3.47,MX,1696232528
125,akureyri,65.6835,-18.0878,42.73,81,100,6.91,IS,1696232528
126,alamosa,37.4695,-105.87,53.58,66,0,8.05,US,1696232528
127,holbeach,52.804,0.0144,62.02,96,100,4.61,GB,1696232529
128,keflavik,64.0049,-22.5624,48.11,76,0,23.02,IS,1696232529
129,hami,42.8,93.45,74.62,20,0,1.34,CN,1696232529
130,fort st. john,56.2499,-120.8529,46.29,76,100,11.5,CA,1696232529
131,taltal,-25.4,-70.4833,58.75,78,6,1.79,CL,1696232529
132,kristiansund,63.1115,7.732,54.25,76,40,6.91,NO,1696232529
133,ambatondrazaka,-17.8333,48.4167,86.77,37,1,2.24,MG,1696232529
134,fale old settlement,-9.3852,-171.2468,81.57,81,100,8.08,TK,1696232529
135,khandyga,62.6667,135.6,43.32,91,90,4.85,RU,1696232530
136,port elizabeth,-33.918,25.5701,70.11,65,0,14.97,ZA,1696232530
137,omdurman,15.6445,32.4777,98.15,28,48,7.07,SD,1696232530
138,east london,-33.0153,27.9116,67.14,55,0,13.8,ZA,1696232530
139,jiuquan,39.7432,98.5174,70.7,20,0,8.01,CN,1696232530
140,san onofre,9.7359,-75.5263,79.16,91,100,3.15,CO,1696232530
141,kefamenanu,-9.4467,124.4781,84.16,45,60,9.95,ID,1696232530
142,kalach,50.4258,41.0261,70.14,32,100,6.2,RU,1696232530
143,kirensk,57.7853,108.1119,36.01,61,100,11.01,RU,1696232531
144,kruisfontein,-34.0033,24.7314,67.89,41,0,9.8,ZA,1696232531
145,la passe,45.5549,-0.8967,70.03,55,55,12.95,FR,1696232531
146,priozersk,61.0393,30.1291,56.1,74,98,4.59,RU,1696232531
147,copiapo,-27.3667,-70.3333,53.29,75,3,4.14,CL,1696232367
148,albany,42.6001,-73.9662,60.64,94,48,1.01,US,1696232531
149,bredasdorp,-34.5322,20.0403,69.1,43,0,6.35,ZA,1696232531
150,zemio,5.0314,25.1361,85.98,62,94,1.21,CF,1696232531
151,ardakan,32.31,54.0175,86.56,11,47,5.08,IR,1696232532
152,ruidoso,33.3317,-105.673,66.27,95,100,3.44,US,1696232453
153,holualoa,19.6228,-155.9522,76.84,81,0,5.75,US,1696232532
154,luderitz,-26.6481,15.1594,67.59,60,0,4.97,NA,1696232532
155,saldanha,-33.0117,17.9442,70.63,39,0,3.49,ZA,1696232532
156,masumbwe,-3.6333,32.1833,86.72,29,100,8.25,TZ,1696232532
157,boguchany,58.3814,97.4531,38.86,53,100,10.0,RU,1696232532
158,mokhsogollokh,61.4681,128.9203,46.04,66,100,1.23,RU,1696232532
159,kuching,1.55,110.3333,93.42,61,40,3.44,MY,1696232533
160,iskateley,67.6803,53.1512,51.03,96,100,8.01,RU,1696232533
161,piti village,13.4626,144.6933,88.68,78,20,19.57,GU,1696232533
162,fuglafjordur,62.244,-6.814,50.47,86,100,17.2,FO,1696232533
163,springbok,-29.6643,17.8865,78.35,20,0,11.14,ZA,1696232533
164,luau,-10.7073,22.2247,87.42,30,94,4.63,AO,1696232533
165,wailua homesteads,22.0669,-159.378,79.23,86,75,12.66,US,1696232533
166,eaton rapids,42.5092,-84.6558,59.02,94,0,0.0,US,1696232533
167,pahrump,36.2083,-115.9839,57.25,59,59,4.0,US,1696232356
168,san antonio de pale,-1.4014,5.6325,77.38,84,100,10.16,GQ,1696232534
169,enewetak,11.3474,162.3373,84.61,75,96,13.18,MH,1696232534
170,morondava,-20.2833,44.2833,84.27,50,0,16.15,MG,1696232534
171,tolanaro,-25.0319,46.9987,69.87,94,75,16.11,MG,1696232534
172,lebu,-37.6167,-73.65,45.39,87,96,3.22,CL,1696232534
173,new plymouth,-39.0667,174.0833,51.31,86,100,16.28,NZ,1696232534
174,fort bragg,35.139,-79.006,62.8,94,0,3.44,US,1696232534
175,hazaribagh,23.9833,85.35,80.65,80,69,13.85,IN,1696232534
176,tazacorte,28.629,-17.9293,74.37,78,75,9.22,ES,1696232535
177,malanje,-9.5402,16.341,78.94,60,15,2.42,AO,1696232535
178,constantia,44.1833,28.65,66.88,46,17,18.99,RO,1696232535
179,kipushi,-11.7667,27.2333,80.15,19,12,13.91,CD,1696232535
180,bamboo flat,11.7,92.7167,81.01,83,100,11.81,IN,1696232535
181,nemuro,43.3236,145.575,61.3,71,3,15.46,JP,1696232535
182,tshikapa,-6.4167,20.8,88.93,52,12,1.5,CD,1696232535
183,nova sintra,14.8667,-24.7167,74.62,80,99,13.02,CV,1696232535
184,nova vicosa,-17.8919,-39.3719,71.15,83,100,3.11,BR,1696232536
185,bosaso,11.2842,49.1816,87.78,70,20,11.5,SO,1696232536
186,ulsteinvik,62.3432,5.8487,56.75,77,53,13.0,NO,1696232536
187,balabac,7.9868,117.0645,84.45,74,100,15.08,PH,1696232536
188,taro,-8.3862,115.28,77.0,64,92,5.32,ID,1696232536
189,poronaysk,49.2167,143.1167,57.29,78,96,5.46,RU,1696232536
190,nago,26.5881,127.9761,88.65,79,28,13.27,JP,1696232536
191,jaumave,23.4167,-99.3833,69.08,91,31,2.26,MX,1696232536
192,chippewa falls,44.9369,-91.3929,70.99,76,0,8.05,US,1696232537
193,rabaul,-4.1967,152.1721,81.25,82,60,7.07,PG,1696232537
194,berriane,32.8265,3.7669,70.65,40,0,4.5,DZ,1696232537
195,aykhal,66.0,111.5,32.07,98,96,15.99,RU,1696232537
196,keren,15.7778,38.4581,86.5,17,0,15.57,ER,1696232537
197,altinekin,38.3078,32.8686,61.36,74,96,13.24,TR,1696232537
198,afaahiti,-17.75,-149.2833,78.67,88,18,17.63,PF,1696232537
199,hit,33.6416,42.8251,88.92,28,100,16.55,IQ,1696232537
200,oriximina,-1.7656,-55.8661,77.76,58,72,2.82,BR,1696232538
201,virac,13.6333,124.2167,77.94,79,100,11.32,PH,1696232538
202,west island,-12.1568,96.8225,82.38,65,40,19.57,CC,1696232538
203,flying fish cove,-10.4217,105.6791,80.28,69,40,13.8,CX,1696232538
204,pskov,57.8136,28.3496,50.92,87,0,6.71,RU,1696232538
205,sitka,57.0531,-135.33,51.69,87,100,4.61,US,1696232538
206,arawa,-6.2132,155.5367,79.14,93,100,4.92,PG,1696232538
207,ilhabela,-23.7781,-45.3581,68.56,91,98,4.97,BR,1696232538
208,vereshchagino,58.0789,54.6557,59.7,62,100,11.7,RU,1696232539
209,hammerfest,70.6634,23.6821,36.05,80,75,1.14,NO,1696232539
210,anzio,41.4853,12.6179,78.01,60,3,5.73,IT,1696232539
211,san patricio,28.017,-97.5169,82.35,83,25,8.3,US,1696232539
212,namibe,-15.1961,12.1522,70.86,65,2,3.87,AO,1696232539
213,serhiyivka,46.0272,30.3768,66.16,46,7,19.98,UA,1696232539
214,minas de marcona,-15.2119,-75.1103,56.59,90,92,7.7,PE,1696232539
215,rikaze,29.25,88.8833,68.31,29,88,2.66,CN,1696232539
216,la'ie,21.6477,-157.9253,80.56,77,46,7.0,US,1696232540
217,ugoofaaru,5.6667,73.0,80.71,81,97,11.39,MV,1696232540
218,nuuk,64.1835,-51.7216,34.41,80,40,13.8,GL,1696232540
219,eyl,7.9803,49.8164,89.51,56,17,15.23,SO,1696232540
220,hailey,43.5196,-114.3153,44.8,76,100,4.0,US,1696232540
221,aasiaat,68.7098,-52.8699,16.54,83,48,10.65,GL,1696232540
222,ebolowa,2.9,11.15,74.84,88,100,2.98,CM,1696232540
223,kabansk,52.0486,106.6528,46.18,38,1,7.78,RU,1696232541
224,bireun,5.203,96.7009,84.99,72,83,8.57,ID,1696232541
225,kapa'a,22.0752,-159.319,80.58,85,75,12.66,US,1696232541
226,huanan,46.2167,130.5167,55.22,57,82,8.28,CN,1696232541
227,lorengau,-2.0226,147.2712,82.04,78,41,5.7,PG,1696232541
228,nagqu,31.5,92.0,54.99,46,95,4.68,CN,1696232541
229,labuan,5.2767,115.2417,89.96,59,20,5.01,MY,1696232541
230,columbia falls,48.3725,-114.1815,50.92,80,100,3.44,US,1696232542
231,piton saint-leu,-21.2196,55.3151,78.87,61,0,8.05,RE,1696232542
232,washington,47.5001,-120.5015,55.8,62,100,4.83,US,1696232542
233,ibiruba,-28.6275,-53.0897,45.99,92,4,3.67,BR,1696232542
234,bodo,67.28,14.405,43.95,86,0,13.8,NO,1696232542
235,fortuna,40.5982,-124.1573,52.93,93,75,4.61,US,1696232542
236,cadale,2.7603,46.3222,82.8,72,4,16.42,SO,1696232542
237,saint-pierre,-21.3393,55.4781,80.28,61,0,8.05,RE,1696232542
238,beyneu,45.3167,55.2,74.05,28,21,13.35,KZ,1696232542
239,chinsali,-10.5414,32.0816,87.55,17,6,12.03,ZM,1696232543
240,nicoya,10.1483,-85.452,75.31,96,100,1.83,CR,1696232543
241,homer,59.6425,-151.5483,46.78,88,100,0.0,US,1696232543
242,at taj,24.2049,23.2857,81.9,28,100,12.91,LY,1696232543
243,arraial do cabo,-22.9661,-42.0278,69.84,97,100,10.13,BR,1696232543
244,tazovsky,67.4667,78.7,37.2,98,100,18.54,RU,1696232543
245,grand baie,-20.0182,57.5802,81.07,61,1,5.99,MU,1696232543
246,vieux-habitants,16.0589,-61.7659,83.77,80,100,8.41,GP,1696232543
247,sola,-13.8833,167.55,78.12,84,92,27.38,VU,1696232544
248,san rafael,-34.6177,-68.3301,60.06,51,17,3.44,AR,1696232544
249,san pedro del parana,-26.8333,-56.2,53.62,82,19,4.52,PY,1696232544
250,turgen,43.4006,77.5933,68.13,40,74,7.4,KZ,1696232544
251,kolonia,50.9333,6.95,68.41,80,0,4.61,DE,1696232544
252,kenai,60.5544,-151.2583,44.69,95,75,0.0,US,1696232544
253,ust'-ilimsk,58.0006,102.6619,35.22,71,100,10.0,RU,1696232259
254,ilulissat,69.2167,-51.1,28.42,50,0,3.44,GL,1696232545
255,labytnangi,66.6572,66.4183,46.06,96,100,14.0,RU,1696232545
256,la sarre,48.8002,-79.1996,53.78,90,98,7.2,CA,1696232335
257,barda,40.3744,47.1267,70.88,56,100,0.78,AZ,1696232545
258,uturoa,-16.7333,-151.4333,78.51,83,11,16.91,PF,1696232545
259,warrenton,-28.114,24.8475,77.49,32,0,17.83,ZA,1696232545
260,igra,57.5558,53.0547,60.22,61,100,10.89,RU,1696232545
261,mil'kovo,55.6078,37.7956,51.31,62,100,6.71,RU,1696232545
262,novyy urgal,51.0736,132.5642,54.99,71,100,2.71,RU,1696232546
263,yung shue wan,22.2333,114.1167,89.8,78,13,14.34,HK,1696232546
264,chonchi,-42.6128,-73.8092,38.41,97,16,1.95,CL,1696232546
265,concepcion,-36.827,-73.0498,48.0,76,100,3.44,CL,1696232546
266,tonj,7.2737,28.6822,87.85,57,100,3.36,SS,1696232546
267,marat,25.0701,45.4615,98.37,10,0,12.35,SA,1696232546
268,cabedelo,-6.9811,-34.8339,70.47,68,91,8.84,BR,1696232537
269,ulladulla,-35.35,150.4667,63.59,78,8,13.35,AU,1696232546
270,el-tor,28.2364,33.6254,82.54,65,75,26.46,EG,1696232546
271,mana,5.6592,-53.7767,76.91,87,42,10.31,GF,1696232547
272,ketchikan,55.3422,-131.6461,54.07,94,100,8.05,US,1696232547
273,undurkhaan,47.3194,110.6556,59.99,29,100,6.98,MN,1696232547
274,orenburg,51.7727,55.0988,64.06,41,100,9.82,RU,1696232343
275,carnarvon,-24.8667,113.6333,69.6,64,32,23.42,AU,1696232547
276,svendborg,55.0598,10.6068,61.86,92,100,14.34,DK,1696232547
277,hithadhoo,-0.6,73.0833,82.65,72,9,13.0,MV,1696232547
278,kelibia,36.8476,11.0939,73.65,88,40,3.44,TN,1696232547
279,alofi,-19.0595,-169.9187,71.49,73,75,11.5,NU,1696232548
280,zag,46.9441,99.165,48.63,32,83,12.86,MN,1696232548
281,tulun,54.5611,100.5792,45.12,47,99,4.74,RU,1696232548
282,gornopravdinsk,60.05,69.9,57.43,63,100,13.51,RU,1696232548
283,i-n-salah,27.1935,2.4607,82.56,30,0,21.65,DZ,1696232548
284,vinh long,10.25,105.9667,84.18,93,100,5.12,VN,1696232548
285,codrington,-38.2667,141.9667,71.33,60,0,5.53,AU,1696232548
286,tralee,52.2704,-9.7026,50.25,100,40,3.44,IE,1696232548
287,fallon,39.4735,-118.7774,49.87,87,100,4.61,US,1696232549
288,antofagasta,-23.65,-70.4,60.08,85,57,5.91,CL,1696232549
289,cockburn town,21.4612,-71.1419,83.14,76,72,12.28,TC,1696232549
290,cole harbour,44.6724,-63.4751,53.98,95,0,3.0,CA,1696232549
291,polyarnyy,69.1989,33.4478,38.73,66,47,17.02,RU,1696232549
292,karratha,-20.7377,116.8463,93.2,22,1,18.16,AU,1696232549
293,malango,-2.9627,119.9001,83.55,52,86,5.75,ID,1696232549
294,portland,45.5234,-122.6762,56.39,82,68,1.01,US,1696232272
295,muisne,0.6,-80.0333,75.54,84,100,6.08,EC,1696232549
296,dhi as sufal,13.8345,44.1147,77.83,23,0,6.67,YE,1696232550
297,san julian,21.0167,-102.1667,59.63,64,99,6.71,MX,1696232550
298,smolyaninovo,43.2956,132.4675,66.83,53,45,3.06,RU,1696232550
299,ternate,0.8,127.4,81.14,83,100,9.51,ID,1696232550
300,tha mai,12.6214,102.0048,82.89,85,65,8.34,TH,1696232550
301,gimbi,9.1667,35.8333,70.18,60,93,3.89,ET,1696232550
302,becerril,9.7041,-73.2793,75.94,94,100,1.43,CO,1696232550
303,volodarskiy,46.4013,48.5409,69.75,34,45,8.03,RU,1696232551
304,kudahuvadhoo,2.6708,72.8944,82.72,73,100,12.41,MV,1696232551
305,khovd,48.0056,91.6419,50.88,45,16,6.46,MN,1696232551
306,ibshaway,29.358,30.6814,81.73,44,79,8.95,EG,1696232551
307,howrah,22.5892,88.3103,84.2,89,75,3.44,IN,1696232466
308,idri,27.5,13.2667,77.67,42,99,16.98,LY,1696232551
309,kourou,5.1552,-52.6478,77.05,85,87,8.66,GF,1696232551
310,conception bay south,47.4999,-52.9981,53.74,95,0,4.23,CA,1696232551
311,pirallahi,40.4723,50.333,78.94,51,98,10.54,AZ,1696232551
312,constitucion,-35.3333,-72.4167,49.37,74,100,4.18,CL,1696232552
313,broome,42.2506,-75.833,60.21,96,52,2.3,US,1696232552
314,peace river,56.2501,-117.286,54.66,72,100,6.91,CA,1696232552
315,palangkaraya,-2.2,113.8333,101.43,20,71,2.82,ID,1696232552
316,weno,7.4515,151.8468,85.95,79,100,4.61,FM,1696232552
317,hohhot,40.8106,111.6522,66.49,42,20,13.42,CN,1696232552
318,thurso,58.5927,-3.5259,53.85,82,0,13.94,GB,1696232428
319,yemva,62.59,50.8594,54.05,86,93,10.0,RU,1696232552
320,zyrya,40.3661,50.2917,78.89,54,93,9.62,AZ,1696232553
321,brak,27.5496,14.2714,79.39,40,2,15.86,LY,1696232553
322,tangalle,6.024,80.7911,77.16,71,70,12.66,LK,1696232553
323,lata,40.1629,-8.3327,70.84,48,0,0.89,PT,1696232553
324,mossel bay,-34.1831,22.146,73.33,53,0,6.67,ZA,1696232416
325,kikvidze,50.7416,43.0518,66.58,34,100,9.37,RU,1696232553
326,flat river,37.8501,-90.5168,59.7,94,0,0.0,US,1696232553
327,macas,-2.3167,-78.1167,65.64,90,100,3.36,EC,1696232553
328,sacele,45.6174,25.6943,58.82,61,26,11.99,RO,1696232553
329,whistler,50.1164,-122.9695,46.56,87,100,4.0,CA,1696232554
330,ust-nera,64.5667,143.2,35.22,56,21,5.99,RU,1696232554
331,rio grande,-32.035,-52.0986,50.95,82,30,7.67,BR,1696232335
332,papao,-17.75,-149.55,80.28,82,2,19.1,PF,1696232554
333,howard springs,-12.497,131.047,87.71,40,50,9.46,AU,1696232554
334,ancud,-41.8697,-73.8203,43.38,85,99,2.73,CL,1696232554
335,hachenburg,50.65,7.8333,62.83,81,0,5.75,DE,1696232554
336,galliano,29.4422,-90.2992,73.99,75,0,9.66,US,1696232554
337,vung tau,10.346,107.0843,77.85,91,100,10.92,VN,1696232555
338,pisco,-13.7,-76.2167,65.01,88,90,9.22,PE,1696232555
339,farah,32.5,62.5,79.7,9,2,5.21,AF,1696232555
340,illapel,-31.6308,-71.1653,51.76,88,100,3.51,CL,1696232555
341,meadow lake,34.8014,-106.5436,71.8,48,28,7.38,US,1696232555
342,amahai,-3.3333,128.9167,80.4,82,94,2.08,ID,1696232555
343,gaiman,-43.2897,-65.4929,52.9,44,98,7.27,AR,1696232555
344,tyukhtet,56.5389,89.3011,44.2,48,100,10.2,RU,1696232555
345,nueve de julio,-35.4444,-60.8831,45.97,90,19,1.99,AR,1696232556
346,vorgashor,67.5833,63.95,49.57,85,100,19.69,RU,1696232556
347,villa nueva,14.5269,-90.5875,68.02,94,100,4.61,GT,1696232556
348,shahrak,34.1074,64.3052,62.28,11,0,9.91,AF,1696232556
349,coquimbo,-29.9533,-71.3436,55.13,87,100,8.05,CL,1696232556
350,allapalli,19.4167,80.0667,87.66,66,97,5.28,IN,1696232556
351,asipovichy,53.2933,28.6422,57.09,66,0,6.78,BY,1696232556
352,viedma,-40.8135,-62.9967,60.3,42,100,15.84,AR,1696232424
353,bengkulu,-3.8004,102.2655,81.37,67,78,13.06,ID,1696232557
354,billdal,57.5667,11.9333,61.02,82,100,10.0,SE,1696232557
355,patacamaya,-17.2333,-67.9167,47.86,75,93,4.03,BO,1696232557
356,port saint john's,-31.6229,29.5448,70.03,54,7,17.92,ZA,1696232557
357,sanawad,22.1833,76.0667,90.91,48,1,7.36,IN,1696232557
358,corrientes,-27.4806,-58.8341,60.69,75,0,6.91,AR,1696232351
359,sydney,-33.8679,151.2073,70.48,70,0,16.11,AU,1696232394
360,caleta de carquin,-11.0925,-77.6267,64.69,90,65,10.31,PE,1696232557
361,itaituba,-4.2761,-55.9836,76.82,62,97,2.15,BR,1696232557
362,cabo san lucas,22.8909,-109.9124,81.75,79,3,1.01,MX,1696232395
363,terrace,54.5163,-128.6035,49.91,93,100,3.44,CA,1696232558
364,ola,59.5833,151.2833,49.41,74,13,2.91,RU,1696232558
365,shalya,57.2471,58.7298,59.36,56,93,11.77,RU,1696232558
366,itacoatiara,-3.1431,-58.4442,76.3,50,100,3.15,BR,1696232558
367,puerto deseado,-47.7503,-65.8938,43.36,72,6,9.01,AR,1696232558
368,levuka,50.1834,-105.4011,48.02,89,100,6.26,CA,1696232558
369,coxim,-18.5067,-54.76,80.78,61,13,0.67,BR,1696232558
370,revda,56.801,59.9303,59.68,57,58,12.77,RU,1696232559
371,boke,10.9409,-14.2967,78.58,93,92,1.07,GN,1696232559
372,brownwood,31.7093,-98.9912,73.4,57,75,3.44,US,1696232434
373,maloye ganyushkino,46.6,49.2667,70.5,39,31,6.76,KZ,1696232559
374,mount pearl,47.5166,-52.7813,53.15,93,100,9.22,CA,1696232559
375,lospalos,-8.5186,127.0025,79.56,64,40,8.23,TL,1696232559
376,ceeldheer,3.8488,47.1806,86.92,59,6,18.05,SO,1696232559
377,winneba,5.3511,-0.6231,78.73,85,93,6.55,GH,1696232559
378,novozybkov,52.5396,31.9275,56.59,58,36,9.71,RU,1696232560
379,monterey,36.2505,-121.2516,53.17,1,1,4.16,US,1696232265
380,djamaa,33.5339,5.9931,77.72,38,0,6.15,DZ,1696232560
381,katsuren-haebaru,26.3369,127.8719,88.57,71,40,19.57,JP,1696232560
382,qamdo,31.1667,97.2333,60.67,34,66,4.97,CN,1696232560
383,murghob,38.1702,73.9667,47.57,21,27,17.11,TJ,1696232560
384,natal,-5.795,-35.2094,71.82,94,20,5.75,BR,1696232435
385,segou,13.4317,-6.2157,83.93,57,91,8.5,ML,1696232560
386,san luis de la loma,17.2706,-100.8939,79.18,83,100,3.42,MX,1696232561
387,kone,-21.0595,164.8658,67.75,77,47,5.44,NC,1696232561
388,achikulak,44.5517,44.8378,71.4,46,98,13.27,RU,1696232561
389,dogansehir,38.0919,37.8789,63.66,49,60,1.28,TR,1696232561
390,lincheng,19.9078,109.6858,84.79,74,36,9.73,CN,1696232561
391,aldan,58.6031,125.3894,48.2,45,89,1.99,RU,1696232561
392,filadelfia,39.9523,-75.1638,66.43,89,0,6.91,US,1696232561
393,al fqih ben calah,32.5009,-6.6906,66.92,26,67,1.01,MA,1696232562
394,saint-philippe,-21.3585,55.7679,80.19,70,10,6.85,RE,1696232562
395,happy valley-goose bay,53.3168,-60.3315,46.71,76,75,8.05,CA,1696232562
396,zhangatas,43.5667,69.75,68.9,30,5,6.78,KZ,1696232562
397,merowe,18.4833,31.8167,102.97,14,7,4.18,SD,1696232562
398,togur,58.3631,82.8265,49.14,71,97,11.99,RU,1696232562
399,kill devil hills,36.0307,-75.676,65.98,92,0,5.75,US,1696232562
400,badami,15.915,75.6768,77.23,67,100,15.77,IN,1696232562
401,posto fiscal rolim de moura,-13.0833,-62.2667,75.92,77,51,1.41,BR,1696232563
402,taksimo,56.3444,114.8794,36.72,90,27,8.01,RU,1696232563
403,bokkos,9.3,9.0,67.93,88,100,3.56,NG,1696232563
404,mwaro,-3.5,29.6667,74.68,46,24,8.59,BI,1696232563
405,al jawf,29.5,38.75,83.5,33,20,13.11,SA,1696232563
406,venancio aires,-29.6064,-52.1919,52.25,95,0,0.45,BR,1696232348
407,st. john's,47.5649,-52.7093,53.98,93,100,9.22,CA,1696232511
408,tindouf,27.6711,-8.1474,75.65,25,0,9.22,DZ,1696232563
409,napili-honokowai,20.9708,-156.6705,78.17,86,40,13.06,US,1696232564
410,mount gambier,-37.8333,140.7667,70.12,51,0,7.43,AU,1696232564
411,hwange,-18.3693,26.5019,89.35,29,0,14.27,ZW,1696232564
412,banff,51.1762,-115.5698,40.23,93,29,3.44,CA,1696232564
413,penza,53.2007,45.0046,64.26,38,100,8.99,RU,1696232548
414,nishinoomote,30.7333,131.0,77.56,64,20,9.22,JP,1696232564
415,lubumbashi,-11.6609,27.4794,81.09,41,18,11.5,CD,1696232564
416,port alberni,49.2413,-124.8028,56.93,80,100,1.01,CA,1696232408
417,brookings,44.3114,-96.7984,71.38,58,0,11.5,US,1696232326
418,iwon-up,40.3231,128.6553,67.75,52,17,7.31,KP,1696232565
419,hadibu,12.65,54.0333,83.48,70,19,3.18,YE,1696232565
420,sinan,34.8262,126.1086,73.51,54,96,17.02,KR,1696232565
421,karasuk,53.7377,78.0403,47.98,35,0,4.0,RU,1696232565
422,mbuji-mayi,-6.15,23.6,89.4,48,100,2.8,CD,1696232565
423,boa vista,2.8197,-60.6733,82.38,61,0,2.3,BR,1696232565
424,dakhla,23.6848,-15.958,69.82,83,0,12.66,EH,1696232565
425,karaidel',55.8337,56.9069,59.13,54,99,14.36,RU,1696232565
426,greenville,35.6127,-77.3663,61.12,95,100,0.0,US,1696232566
427,kalabo,-14.97,22.6814,90.18,23,72,11.9,ZM,1696232566
428,mukalla,14.5425,49.1242,88.86,55,9,8.97,YE,1696232566
429,ndele,8.4109,20.6473,83.28,75,77,1.97,CF,1696232566
430,hun,29.1268,15.9477,73.65,54,0,6.24,LY,1696232566
431,mahavelona,-17.6848,49.5087,82.38,66,6,9.95,MG,1696232566
432,tshabong,-26.05,22.45,81.12,29,0,21.16,BW,1696232566
433,auki,-8.7676,160.7034,79.23,89,96,5.86,SB,1696232566
434,brisas de zicatela,15.8369,-97.0419,79.41,89,100,5.99,MX,1696232566
435,mutuali,-14.8706,37.0044,92.34,24,1,5.59,MZ,1696232567
436,gereshk,31.8209,64.5701,81.9,7,1,1.43,AF,1696232567
437,cannonvale,-20.2833,148.7,72.79,79,8,11.41,AU,1696232567
438,newman,37.3138,-121.0208,62.58,76,5,2.8,US,1696232567
439,lockhart,28.6194,-81.4426,75.29,95,0,4.61,US,1696232567
440,birjand,32.8663,59.2211,82.87,9,0,4.61,IR,1696232567
441,troitskoye,52.9821,84.6757,53.69,43,9,4.36,RU,1696232567
442,korla,41.7597,86.1469,74.5,22,3,1.66,CN,1696232568
443,dolores,-36.3132,-57.6792,43.48,94,0,4.92,AR,1696232568
444,dabhol,17.6,73.1667,79.54,81,100,4.88,IN,1696232568
445,portsmouth,50.799,-1.0913,62.13,97,100,1.99,GB,1696232568
446,as samawah,31.332,45.2944,96.78,17,84,4.09,IQ,1696232568
447,puerto lempira,15.2667,-83.7667,79.95,87,13,3.22,HN,1696232568
448,iowa falls,42.5225,-93.2513,68.86,63,0,6.91,US,1696232568
449,san miguel de salcedo,-1.0333,-78.5667,51.94,100,40,3.44,EC,1696232568
450,perry,37.2506,-83.1999,65.12,84,0,2.06,US,1696232569
451,sumbe,-11.2061,13.8437,76.5,76,50,4.38,AO,1696232569
452,novyy urengoy,66.0833,76.6333,42.67,97,100,13.87,RU,1696232569
453,sungailiat,-1.85,106.1333,86.95,62,61,14.79,ID,1696232569
454,greenwood,34.1668,-82.1165,61.63,95,0,0.0,US,1696232359
455,borogontsy,62.6683,131.1683,45.28,87,100,5.01,RU,1696232569
456,kavarna,43.4333,28.3333,62.28,60,75,13.8,BG,1696232569
457,ta`u,-14.2336,-169.5144,80.2,80,99,22.88,AS,1696232569
458,haiku-pauwela,20.9219,-156.3051,77.04,70,40,19.57,US,1696232569
459,mareeba,-17.0,145.4333,75.92,68,18,8.55,AU,1696232570
460,yemel'yanovo,56.1681,92.6767,42.08,52,0,13.0,RU,1696232570
461,merizo village,13.2658,144.6691,88.36,89,9,12.28,GU,1696232570
462,akdepe,42.0551,59.3788,73.49,26,0,7.54,TM,1696232570
463,manzhouli,49.6,117.4333,59.49,33,100,7.27,CN,1696232570
464,cholpon-ata,42.6494,77.0823,59.05,52,59,3.89,KG,1696232570
465,rehoboth,-23.3167,17.0833,84.4,10,0,8.79,NA,1696232570
466,daru,-9.0763,143.2092,77.63,85,73,13.47,PG,1696232570
467,ixtapa,20.7,-105.2,81.23,91,93,2.33,MX,1696232571
468,cova figueira,14.8905,-24.2934,75.09,81,86,9.51,CV,1696232571
469,conde,-7.2597,-34.9075,69.26,94,0,2.3,BR,1696232571
470,nizhniy odes,63.6445,54.856,49.24,90,100,12.77,RU,1696232571
471,maceio,-9.6658,-35.7353,71.04,100,20,3.44,BR,1696232571
472,lucapa,-8.4192,20.7447,87.31,44,9,2.71,AO,1696232571
473,belmonte,-15.8631,-38.8828,70.27,88,13,2.73,BR,1696232571
474,manadhoo,5.7667,73.3833,81.14,79,98,13.2,MV,1696232571
475,kralendijk,12.15,-68.2667,84.18,84,100,2.3,BQ,1696232571
476,orcopampa,-15.2661,-72.3417,45.48,83,34,4.21,PE,1696232572
477,santa cruz,-17.8,-63.1667,72.86,68,90,4.61,BO,1696232572
478,barjala,23.6167,91.3667,89.46,76,31,9.33,IN,1696232572
479,ojuelos de jalisco,21.8667,-101.5833,53.74,90,71,5.95,MX,1696232572
480,egilsstadir,65.2653,-14.3948,42.71,100,75,23.02,IS,1696232572
481,primero de mayo,-32.2552,-58.4228,48.54,81,0,7.16,AR,1696232572
482,plettenberg bay,-34.0527,23.3716,70.83,44,0,3.89,ZA,1696232572
483,village of oak creek (big park),34.7809,-111.7623,59.85,55,100,4.61,US,1696232572
484,rundu,-17.9333,19.7667,93.67,14,6,10.76,NA,1696232573
485,puerto san jose,13.9256,-90.8244,78.42,88,75,4.41,GT,1696232573
486,remire-montjoly,4.9167,-52.2667,77.04,88,0,0.0,GF,1696232573
487,fonte boa,-2.4959,-66.2662,75.0,87,100,3.11,BR,1696232573
488,solnechnyy,50.7214,136.6319,45.03,95,100,11.88,RU,1696232573
489,puerto baquerizo moreno,-0.9,-89.6,72.28,88,96,11.63,EC,1696232544
490,kyshtovka,56.555,76.6271,57.34,58,39,12.82,RU,1696232573
491,pathein,16.7833,94.7333,77.74,92,100,6.02,MM,1696232573
492,tannum sands,-23.9504,151.3693,75.09,60,0,12.66,AU,1696232573
493,ocala,29.1872,-82.1401,71.96,87,40,5.75,US,1696232574
494,xunchang,28.4543,104.715,68.41,90,100,2.64,CN,1696232574
495,hailin,44.5833,129.4167,57.33,59,4,7.65,CN,1696232574
496,vorkuta,67.5,64.0,49.91,84,100,19.17,RU,1696232574
497,khorinsk,52.1657,109.7726,48.02,33,24,8.99,RU,1696232574
498,general acha,-37.377,-64.6043,57.99,40,100,18.9,AR,1696232574
499,masterton,-40.9597,175.6575,53.89,66,5,17.18,NZ,1696232574
500,tukrah,32.5341,20.5791,76.96,57,0,9.55,LY,1696232575
501,zhangjiakou,40.81,114.8794,71.42,24,100,6.62,CN,1696232575
502,colesberg,-30.72,25.0972,65.07,27,0,11.72,ZA,1696232575
503,ilebo,-4.3167,20.5833,91.09,45,10,1.1,CD,1696232575
504,waingapu,-9.6567,120.2641,85.28,64,77,13.44,ID,1696232575
505,pacific grove,36.6177,-121.9166,59.02,91,0,4.61,US,1696232575
506,mariana,-20.3778,-43.4161,66.29,98,100,2.24,BR,1696232575
507,santiago de cao,-7.9589,-79.2392,66.33,88,75,9.22,PE,1696232575
508,caiaponia,-16.9567,-51.8103,77.16,60,76,4.32,BR,1696232576
509,laon,49.5667,3.6667,65.71,55,72,3.96,FR,1696232576
510,katsuura,35.1333,140.3,71.71,63,100,13.22,JP,1696232576
511,moramanga,-18.9333,48.2,87.93,31,4,4.59,MG,1696232576
512,huanta,-12.9333,-74.25,56.35,72,73,1.16,PE,1696232576
513,la foa,-21.7108,165.8276,70.99,64,12,7.76,NC,1696232576
514,island harbour,50.724,-1.2758,62.92,95,100,4.68,GB,1696232576
515,rabo de peixe,37.8,-25.5833,65.71,99,20,11.5,PT,1696232576
516,makoua,0.0069,15.6333,85.82,63,18,2.75,CG,1696232576
517,koubia,11.5833,-11.9,71.64,90,90,2.13,GN,1696232577
518,kodinsk,58.6881,99.1844,34.45,65,100,9.91,RU,1696232577
519,aldinga beach,-35.2793,138.4604,87.62,44,1,7.94,AU,1696232577
520,scituate,42.1959,-70.7259,63.05,89,40,1.99,US,1696232279
521,cill airne,52.05,-9.5167,50.05,100,40,3.44,IE,1696232577
522,gorshechnoye,51.5244,38.0365,55.44,56,100,13.04,RU,1696232577
523,coruripe,-10.1256,-36.1756,69.31,85,5,5.7,BR,1696232577
524,aginskoye,51.1,114.53,52.52,52,100,13.94,RU,1696232577
525,onega,63.9061,38.1404,45.16,85,100,8.84,RU,1696232509
526,maxixe,-23.8597,35.3472,76.82,44,75,17.27,MZ,1696232578
527,smithers,54.7804,-127.1743,44.92,100,100,3.44,CA,1696232410
528,dossor,47.5272,52.9811,73.26,34,93,14.79,KZ,1696232578
529,kapit,2.0167,112.9333,89.06,59,100,2.1,MY,1696232578
530,xapuri,-10.6517,-68.5044,73.62,85,87,2.39,BR,1696232578
531,ishigaki,24.3448,124.1572,84.33,74,75,19.57,JP,1696232578
532,butha-buthe,-28.8333,28.5,58.17,22,0,5.66,LS,1696232578
533,thonon-les-bains,46.25,6.5,64.67,54,33,0.11,FR,1696232578
534,kajaani,64.2273,27.7285,46.45,93,100,2.3,FI,1696232579
535,puerto aysen,-45.4,-72.7,39.78,98,100,2.3,CL,1696232579
536,suances,43.4334,-4.0434,73.81,100,100,0.0,ES,1696232579
537,pariaman,-0.619,100.12,84.25,76,97,10.38,ID,1696232579
538,dunedin,-45.8742,170.5036,44.8,80,67,14.0,NZ,1696232579
539,tadine,-21.55,167.8833,70.23,70,100,16.89,NC,1696232579
540,yanta,36.2411,115.6672,64.26,64,100,4.9,CN,1696232579
541,vilyuysk,63.7553,121.6247,39.0,86,100,11.99,RU,1696232579
542,sandnessjoen,66.0217,12.6316,44.71,81,75,1.14,NO,1696232580
543,thinadhoo,0.5333,72.9333,81.81,76,41,10.92,MV,1696232580
544,klaksvik,62.2266,-6.589,50.92,88,100,20.94,FO,1696232580
545,makarov,48.6333,142.8,52.54,85,86,17.63,RU,1696232580
546,yelizovo,53.1873,158.3805,47.84,96,100,15.66,RU,1696232580
547,pitimbu,-7.4706,-34.8086,70.39,69,84,7.38,BR,1696232580
548,kayangel,8.0823,134.7173,83.48,72,100,2.51,PW,1696232580
549,frontera,26.9333,-101.45,77.9,73,75,5.01,MX,1696232528
550,mar del plata,-38.0023,-57.5575,49.08,96,100,8.05,AR,1696232580
551,askoy,60.4092,5.226,52.09,100,75,6.91,NO,1696232581
552,assab,13.0092,42.7394,90.82,59,0,21.97,ER,1696232581
